category,name,label,label2,address,postal_code,country,latitude,longitude
EDUCATION (SECONDARY),ADMIRALTY SECONDARY SCHOOL,SECONDARY,NA,31 WOODLANDS CRESCENT,737916,Singapore,1.44627,103.80261
EDUCATION (SECONDARY),AHMAD IBRAHIM SECONDARY SCHOOL,SECONDARY,NA,751 YISHUN AVENUE 7,768928,Singapore,1.43632,103.8299
EDUCATION (SECONDARY),ANDERSON SECONDARY SCHOOL,SECONDARY,NA,10 ANG MO KIO STREET 53,569206,Singapore,1.37464,103.85103
EDUCATION (SECONDARY),ANGLICAN HIGH SCHOOL,SECONDARY,NA,600 UPPER CHANGI ROAD,487012,Singapore,1.33078,103.94164
EDUCATION (SECONDARY),ANGLO-CHINESE SCHOOL (BARKER ROAD),SECONDARY,NA,60 BARKER ROAD,309919,Singapore,1.31974,103.83585
EDUCATION (SECONDARY),ANGLO-CHINESE SCHOOL (INDEPENDENT),SECONDARY,NA,121 DOVER ROAD,139650,Singapore,1.3027,103.78055
EDUCATION (SECONDARY),ANG MO KIO SECONDARY SCHOOL,SECONDARY,NA,6 ANG MO KIO STREET 22,569362,Singapore,1.36735,103.8426
EDUCATION (SECONDARY),ASSUMPTION ENGLISH SCHOOL,SECONDARY,NA,622 Upper Bukit Timah Road Assumption English School,678117,Singapore,1.36819,103.76598
EDUCATION (SECONDARY),BALESTIER HILL SECONDARY SCHOOL,SECONDARY,NA,11 NOVENA RISE,307516,Singapore,1.32489,103.84453
EDUCATION (SECONDARY),BARTLEY SECONDARY SCHOOL,SECONDARY,NA,10 JALAN BUNGA RAMPAI ROAD,538403,Singapore,1.34028,103.88283
EDUCATION (SECONDARY),BEATTY SECONDARY SCHOOL,SECONDARY,NA,1 TOA PAYOH NORTH,318990,Singapore,1.34154,103.85196
EDUCATION (SECONDARY),BEDOK GREEN SECONDARY SCHOOL,SECONDARY,NA,360 BEDOK NORTH AVE 3,469722,Singapore,1.33414,103.93534
EDUCATION (SECONDARY),BEDOK NORTH SECONDARY SCHOOL,SECONDARY,NA,20 JALAN DAMAI,419612,Singapore,1.3348,103.91023
EDUCATION (SECONDARY),BEDOK SOUTH SECONDARY SCHOOL,SECONDARY,NA,1 JALAN LANGGAR BEDOK,468585,Singapore,1.32481,103.95098
EDUCATION (SECONDARY),BEDOK VIEW SECONDARY SCHOOL,SECONDARY,NA,6 BEDOK SOUTH AVENUE 3,469293,Singapore,1.32463,103.94386
EDUCATION (SECONDARY),BENDEMEER SECONDARY SCHOOL,SECONDARY,NA,1 ST WILFRED ROAD,327919,Singapore,1.32461,103.86066
EDUCATION (SECONDARY),BISHAN PARK SECONDARY SCHOOL,SECONDARY,NA,2 SIN MING WALK,575565,Singapore,1.36437,103.83289
EDUCATION (SECONDARY),BOON LAY SECONDARY SCHOOL,SECONDARY,NA,11 JURONG WEST STREET 65,648354,Singapore,1.34217,103.70195
EDUCATION (SECONDARY),BOWEN SECONDARY SCHOOL,SECONDARY,NA,2 LORONG NAPIRI,547529,Singapore,1.37117,103.87797
EDUCATION (SECONDARY),BROADRICK SECONDARY SCHOOL,SECONDARY,NA,61 DAKOTA CRESCENT,399935,Singapore,1.30728,103.88721
EDUCATION (SECONDARY),BUKIT BATOK SECONDARY SCHOOL,SECONDARY,NA,50 BUKIT BATOK WEST AVE 8,658962,Singapore,1.34851,103.74087
EDUCATION (SECONDARY),BUKIT MERAH SECONDARY SCHOOL,SECONDARY,NA,10 LENGKOK BAHRU,159050,Singapore,1.2859,103.81311
EDUCATION (SECONDARY),BUKIT PANJANG GOVT. HIGH SCHOOL,SECONDARY,NA,7 CHOA CHU KANG AVE 4,689809,Singapore,1.38187,103.73858
EDUCATION (SECONDARY),BUKIT VIEW SECONDARY SCHOOL,SECONDARY,NA,16 BUKIT BATOK STREET 21,659633,Singapore,1.34609,103.75266
EDUCATION (SECONDARY),CANBERRA SECONDARY SCHOOL,SECONDARY,NA,51 SEMBAWANG DRIVE,757699,Singapore,1.45366,103.81441
EDUCATION (SECONDARY),CATHOLIC HIGH SCHOOL,SECONDARY,NA,9 BISHAN STREET 22,579767,Singapore,1.31677,103.84154
EDUCATION (SECONDARY),CEDAR GIRLS' SECONDARY SCHOOL,SECONDARY,NA,1 CEDAR AVENUE,349692,Singapore,1.33428,103.87417
EDUCATION (SECONDARY),CHANGKAT CHANGI SECONDARY SCHOOL,SECONDARY,NA,23 SIMEI ST 3,529894,Singapore,1.34037,103.9527
EDUCATION (SECONDARY),CHIJ KATONG CONVENT,SECONDARY,NA,3 GEYLANG BAHRU LANE,339626,Singapore,1.3064,103.91669
EDUCATION (SECONDARY),CHIJ SECONDARY (TOA PAYOH),SECONDARY,NA,626 LORONG 1 TOA PAYOH,319764,Singapore,1.33231,103.84281
EDUCATION (SECONDARY),CHIJ ST. JOSEPH'S CONVENT,SECONDARY,SECONDARY,62 SENG KANG EAST WAY,548595,Singapore,1.39175,103.90246
EDUCATION (SECONDARY),CHIJ ST. THERESA'S CONVENT,SECONDARY,NA,160 LOWER DELTA ROAD,99138,Singapore,1.27525,103.82212
EDUCATION (SECONDARY),CHONG BOON SECONDARY SCHOOL,SECONDARY,NA,2 ANG MO KIO STREET 44,569250,Singapore,1.3641,103.85804
EDUCATION (SECONDARY),CHRIST CHURCH SECONDARY SCHOOL,SECONDARY,NA,20 WOODLANDS DRIVE 17,737924,Singapore,1.4264,103.79342
EDUCATION (SECONDARY),CHUA CHU KANG SECONDARY SCHOOL,SECONDARY,NA,3 TECK WHYE CRESCENT,688845,Singapore,1.38348,103.75155
EDUCATION (SECONDARY),CHUNG CHENG HIGH SCHOOL (MAIN),SECONDARY,NA,50 GOODMAN ROAD,439012,Singapore,1.30541,103.89155
EDUCATION (SECONDARY),CHUNG CHENG HIGH SCHOOL (YISHUN),SECONDARY,NA,11 YISHUN STREET 61,768547,Singapore,1.41874,103.83731
EDUCATION (SECONDARY),CLEMENTI TOWN SECONDARY SCHOOL,SECONDARY,NA,10 CLEMENTI AVE 3,129904,Singapore,1.31549,103.76228
EDUCATION (SECONDARY),COMMONWEALTH SECONDARY SCHOOL,SECONDARY,NA,698 WEST COAST ROAD,608784,Singapore,1.31893,103.74559000000001
EDUCATION (SECONDARY),COMPASSVALE SECONDARY SCHOOL,SECONDARY,NA,51 COMPASSVALE CRESCENT,545083,Singapore,1.39609,103.89971
EDUCATION (SECONDARY),CORAL SECONDARY SCHOOL,SECONDARY,NA,31 PASIR RIS STREET 51,518901,Singapore,1.36753,103.94927
EDUCATION (SECONDARY),CRESCENT GIRLS' SCHOOL,SECONDARY,NA,357 TANGLIN ROAD,247961,Singapore,1.29402,103.81668
EDUCATION (SECONDARY),CREST SECONDARY SCHOOL,SECONDARY,NA,561 JURONG EAST STREET 24,609561,Singapore,1.34366,103.74286
EDUCATION (SECONDARY),DAMAI SECONDARY SCHOOL,SECONDARY,NA,4800 BEDOK RESERVOIR ROAD,479229,Singapore,1.33712,103.927
EDUCATION (SECONDARY),DEYI SECONDARY SCHOOL,SECONDARY,NA,1 ANG MO KIO STREET 42,569277,Singapore,1.36611,103.85233
EDUCATION (SECONDARY),DUNEARN SECONDARY SCHOOL,SECONDARY,NA,247 Jalan Boon Lay,619522,Singapore,1.34138,103.71071
EDUCATION (SECONDARY),DUNMAN HIGH SCHOOL,SECONDARY,NA,10 TANJONG RHU ROAD,436895,Singapore,1.29837,103.88226
EDUCATION (SECONDARY),DUNMAN SECONDARY SCHOOL,SECONDARY,NA,21 TAMPINES STREET 45,529093,Singapore,1.36106,103.95593
EDUCATION (SECONDARY),EAST SPRING SECONDARY SCHOOL,SECONDARY,NA,30 TAMPINES STREET 34,529231,Singapore,1.35682,103.96075
EDUCATION (SECONDARY),EAST VIEW SECONDARY SCHOOL,SECONDARY,NA,3 TAMPINES STREET 42,529177,Singapore,1.35813,103.94934
EDUCATION (SECONDARY),EDGEFIELD SECONDARY SCHOOL,SECONDARY,NA,36 PUNGGOL FIELD,828814,Singapore,1.40022,103.9023
EDUCATION (SECONDARY),EVERGREEN SECONDARY SCHOOL,SECONDARY,NA,11 WOODLANDS STREET 83,738489,Singapore,1.44154,103.79361
EDUCATION (SECONDARY),FAIRFIELD METHODIST SCHOOL (SECONDARY),SECONDARY,NA,102 Dover Road Fairfield Methodist Secondary,139649,Singapore,1.30178,103.78448
EDUCATION (SECONDARY),FAJAR SECONDARY SCHOOL,SECONDARY,NA,58 Chestnut Drive,679301,Singapore,1.36915,103.77019
EDUCATION (SECONDARY),FUCHUN SECONDARY SCHOOL,SECONDARY,NA,21 WOODLANDS AVENUE 1,739062,Singapore,1.43095,103.77733
EDUCATION (SECONDARY),FUHUA SECONDARY SCHOOL,SECONDARY,NA,5 JURONG WEST STREET 41,649410,Singapore,1.34728,103.72656
EDUCATION (SECONDARY),GAN ENG SENG SCHOOL,SECONDARY,NA,1 HENDERSON ROAD,159561,Singapore,1.28945,103.82374
EDUCATION (SECONDARY),GEYLANG METHODIST SCHOOL (SECONDARY),SECONDARY,NA,2 GEYLANG EAST CENTRAL,389705,Singapore,1.31769,103.88268
EDUCATION (SECONDARY),GREENDALE SECONDARY SCHOOL,SECONDARY,NA,51 EDGEDALE PLAINS,828866,Singapore,1.39699,103.91172
EDUCATION (SECONDARY),GREENRIDGE SECONDARY SCHOOL,SECONDARY,NA,32 BUKIT PANJANG RING ROAD,679938,Singapore,1.38206,103.77384
EDUCATION (SECONDARY),GREENVIEW SECONDARY SCHOOL,SECONDARY,NA,15 PASIR RIS STREET 21,518969,Singapore,1.36928,103.96273
EDUCATION (SECONDARY),GUANGYANG SECONDARY SCHOOL,SECONDARY,NA,8 BISHAN STREET 12,579807,Singapore,1.34469,103.85057
EDUCATION (SECONDARY),HAI SING CATHOLIC SCHOOL,SECONDARY,NA,9 PASIR RIS DRIVE 6,519421,Singapore,1.37445,103.95485
EDUCATION (SECONDARY),HENDERSON SECONDARY SCHOOL,SECONDARY,NA,100 HENDERSON RD,159544,Singapore,1.28535,103.81998
EDUCATION (SECONDARY),HILLGROVE SECONDARY SCHOOL,SECONDARY,NA,10 BUKIT BATOK STREET 52,659250,Singapore,1.35313,103.75317
EDUCATION (SECONDARY),HOLY INNOCENTS' HIGH SCHOOL,SECONDARY,NA,1191 UPPER SERANGOON ROAD,534786,Singapore,1.37115,103.89602
EDUCATION (SECONDARY),HONG KAH SECONDARY SCHOOL,SECONDARY,NA,931 JURONG WEST STREET 42,649370,Singapore,1.35218,103.7271
EDUCATION (SECONDARY),HOUGANG SECONDARY SCHOOL,SECONDARY,NA,2 HOUGANG STREET 93,534256,Singapore,1.37758,103.88214
EDUCATION (SECONDARY),HUA YI SECONDARY SCHOOL,SECONDARY,NA,60 JURONG WEST ST 42,649371,Singapore,1.35147,103.72158
EDUCATION (SECONDARY),JUNYUAN SECONDARY SCHOOL,SECONDARY,NA,11 TAMPINES STREET 84,528933,Singapore,1.35333,103.93352
EDUCATION (SECONDARY),JURONG SECONDARY SCHOOL,SECONDARY,NA,31 YUAN CHING ROAD,618652,Singapore,1.33037,103.72428
EDUCATION (SECONDARY),JURONGVILLE SECONDARY SCHOOL,SECONDARY,NA,202 JURONG EAST AVENUE 1,609790,Singapore,1.35166,103.7291
EDUCATION (SECONDARY),JURONG WEST SECONDARY SCHOOL,SECONDARY,NA,61 JURONG WEST STREET 65,648348,Singapore,1.33593,103.7016
EDUCATION (SECONDARY),JUYING SECONDARY SCHOOL,SECONDARY,NA,33 JURONG WEST STREET 91,649038,Singapore,1.33953,103.68723
EDUCATION (SECONDARY),KENT RIDGE SECONDARY SCHOOL,SECONDARY,NA,147 WEST COAST ROAD,127368,Singapore,1.30138,103.76494
EDUCATION (SECONDARY),KRANJI SECONDARY SCHOOL,SECONDARY,NA,61 CHOA CHU KANG STREET 51,689333,Singapore,1.38168,103.75652
EDUCATION (SECONDARY),KUO CHUAN PRESBYTERIAN SECONDARY SCHOOL,SECONDARY,NA,10 BISHAN STREET 13,579795,Singapore,1.35014,103.85491
EDUCATION (SECONDARY),LOYANG SECONDARY SCHOOL,SECONDARY,NA,12 PASIR RIS STREET 11,519073,Singapore,1.36646,103.9574
EDUCATION (SECONDARY),MACPHERSON SECONDARY SCHOOL,SECONDARY,NA,121 CIRCUIT ROAD,379499,Singapore,1.32747,103.88887
EDUCATION (SECONDARY),MANJUSRI SECONDARY SCHOOL,SECONDARY,NA,20 UBI AVENUE 1,408940,Singapore,1.32741,103.90134
EDUCATION (SECONDARY),MARIS STELLA HIGH SCHOOL,SECONDARY,NA,25 MOUNT VERNON ROAD,368051,Singapore,1.34224,103.87828
EDUCATION (SECONDARY),MARSILING SECONDARY SCHOOL,SECONDARY,NA,12 MARSILING ROAD,739110,Singapore,1.4386,103.77634
EDUCATION (SECONDARY),MAYFLOWER SECONDARY SCHOOL,SECONDARY,NA,2 ANG MO KIO STREET 21,569384,Singapore,1.36863,103.83521
EDUCATION (SECONDARY),METHODIST GIRLS' SCHOOL (SECONDARY),SECONDARY,NA,11 BLACKMORE DRIVE,599986,Singapore,1.33289,103.78341
EDUCATION (SECONDARY),MONTFORT SECONDARY SCHOOL,SECONDARY,NA,50 HOUGANG AVENUE 8,538785,Singapore,1.37418,103.88697
EDUCATION (SECONDARY),NAN CHIAU HIGH SCHOOL,SECONDARY,NA,20 ANCHORVALE LINK,545079,Singapore,1.38935,103.88913
EDUCATION (SECONDARY),NAN HUA HIGH SCHOOL,SECONDARY,NA,41 CLEMENTI AVENUE 1,129956,Singapore,1.30837,103.76893
EDUCATION (SECONDARY),NANYANG GIRLS' HIGH SCHOOL,SECONDARY,NA,2 LINDEN DRIVE,288683,Singapore,1.33053,103.80235
EDUCATION (SECONDARY),NAVAL BASE SECONDARY SCHOOL,SECONDARY,NA,901 YISHUN RING ROAD,768689,Singapore,1.41894,103.83068
EDUCATION (SECONDARY),NEW TOWN SECONDARY SCHOOL,SECONDARY,NA,1020 DOVER ROAD,139657,Singapore,1.31004,103.77318
EDUCATION (SECONDARY),NGEE ANN SECONDARY SCHOOL,SECONDARY,NA,1 TAMPINES STREET 32,529283,Singapore,1.35429,103.95682
EDUCATION (SECONDARY),NORTHBROOKS SECONDARY SCHOOL,SECONDARY,NA,585 YISHUN RING ROAD,768692,Singapore,1.42121,103.84516
EDUCATION (SECONDARY),NORTHLAND SECONDARY SCHOOL,SECONDARY,NA,3 YISHUN STREET 22,768578,Singapore,1.43583,103.84019
EDUCATION (SECONDARY),NORTH VIEW SECONDARY SCHOOL,SECONDARY,NA,530 YISHUN RING ROAD,768680,Singapore,1.42791,103.84471
EDUCATION (SECONDARY),NORTH VISTA SECONDARY SCHOOL,SECONDARY,NA,11 RIVERVALE LINK,545081,Singapore,1.38121,103.89908
EDUCATION (SECONDARY),ORCHID PARK SECONDARY SCHOOL,SECONDARY,NA,10 YISHUN STREET 81,768454,Singapore,1.4156,103.83809
EDUCATION (SECONDARY),OUTRAM SECONDARY SCHOOL,SECONDARY,NA,3 YORK HILL,168622,Singapore,1.28651,103.83709
EDUCATION (SECONDARY),PASIR RIS CREST SECONDARY SCHOOL,SECONDARY,NA,11 PASIR RIS STREET 41,518934,Singapore,1.37287,103.95948
EDUCATION (SECONDARY),PASIR RIS SECONDARY SCHOOL,SECONDARY,NA,390 TAMPINES STREET 21,529400,Singapore,1.35476,103.94853
EDUCATION (SECONDARY),PAYA LEBAR METHODIST GIRLS' SCHOOL (SECONDARY),SECONDARY,NA,296 LOR AH SOO,536742,Singapore,1.35081,103.88554
EDUCATION (SECONDARY),PEICAI SECONDARY SCHOOL,SECONDARY,NA,10 SERANGOON AVENUE 4,556094,Singapore,1.35937,103.87049
EDUCATION (SECONDARY),PEI HWA SECONDARY SCHOOL,SECONDARY,NA,21 FERNVALE LINK,797702,Singapore,1.39065,103.87846
EDUCATION (SECONDARY),PEIRCE SECONDARY SCHOOL,SECONDARY,NA,10 SIN MING WALK,575566,Singapore,1.36628,103.82981
EDUCATION (SECONDARY),PING YI SECONDARY SCHOOL,SECONDARY,NA,61 CHAI CHEE STREET,468980,Singapore,1.32667,103.92066
EDUCATION (SECONDARY),PIONEER SECONDARY SCHOOL,SECONDARY,NA,21 JURONG WEST STREET 81,649075,Singapore,1.34746,103.69509
EDUCATION (SECONDARY),PRESBYTERIAN HIGH SCHOOL,SECONDARY,NA,5209 ANG MO KIO AVENUE 6,569845,Singapore,1.38225,103.8431
EDUCATION (SECONDARY),PUNGGOL SECONDARY SCHOOL,SECONDARY,NA,51 EDGEFIELD PLAINS,828870,Singapore,1.40269,103.90914
EDUCATION (SECONDARY),QUEENSTOWN SECONDARY SCHOOL,SECONDARY,NA,1 STRATHMORE ROAD,148800,Singapore,1.29376,103.8132
EDUCATION (SECONDARY),QUEENSWAY SECONDARY SCHOOL,SECONDARY,NA,2A MARGARET DRIVE,149295,Singapore,1.30047,103.80209
EDUCATION (SECONDARY),RAFFLES GIRLS' SCHOOL (SECONDARY),SECONDARY,NA,20 ANDERSON ROAD,259978,Singapore,1.31167,103.82874
EDUCATION (SECONDARY),REGENT SECONDARY SCHOOL,SECONDARY,NA,50 CHOA CHU KANG NORTH 5,689621,Singapore,1.39361,103.751
EDUCATION (SECONDARY),RIVERSIDE SECONDARY SCHOOL,SECONDARY,NA,3 WOODLANDS STREET 81,738524,Singapore,1.44048,103.78859
EDUCATION (SECONDARY),RIVER VALLEY HIGH SCHOOL,SECONDARY,NA,6 BOON LAY AVENUE,649961,Singapore,1.34317,103.70949
EDUCATION (SECONDARY),SCHOOL OF SCIENCE AND TECHNOLOGY,SECONDARY,NA,1 Technology Drive,138572,Singapore,1.3132,103.77434
EDUCATION (SECONDARY),SCHOOL OF THE ARTS,SECONDARY,POST-SECONDARY,01 05 1 Zubir Said Drive Admin Office,227968,Singapore,1.29931,103.849
EDUCATION (SECONDARY),SEMBAWANG SECONDARY SCHOOL,SECONDARY,NA,30 SEMBAWANG CRESCENT,757704,Singapore,1.44558,103.8169
EDUCATION (SECONDARY),SENG KANG SECONDARY SCHOOL,SECONDARY,NA,10 COMPASSVALE LANE,545090,Singapore,1.38622,103.89835
EDUCATION (SECONDARY),SERANGOON GARDEN SECONDARY SCHOOL,SECONDARY,NA,21 SERANGOON NORTH AVENUE 1,555889,Singapore,1.36973,103.86899
EDUCATION (SECONDARY),SERANGOON SECONDARY SCHOOL,SECONDARY,NA,11 UPPER SERANGOON VIEW,534237,Singapore,1.37489,103.90226
EDUCATION (SECONDARY),SHUQUN SECONDARY SCHOOL,SECONDARY,NA,450 JURONG EAST STREET 21,609604,Singapore,1.34034,103.73947
EDUCATION (SECONDARY),SIGLAP SECONDARY SCHOOL,SECONDARY,NA,10 PASIR RIS DRIVE 10,519385,Singapore,1.38003,103.93878
EDUCATION (SECONDARY),SI LING SECONDARY SCHOOL,SECONDARY,NA,11 MARSILING LANE,739148,Singapore,1.4451,103.7748
EDUCATION (SECONDARY),SINGAPORE CHINESE GIRLS' SCHOOL,PRIMARY,SECONDARY,190 DUNEARN ROAD,309437,Singapore,1.32068,103.82859
EDUCATION (SECONDARY),SINGAPORE SPORTS SCHOOL,SECONDARY,NA,1 Champions Way,737913,Singapore,1.4267,103.78906
EDUCATION (SECONDARY),SPECTRA SECONDARY SCHOOL,SECONDARY,NA,1 WOODLANDS DRIVE 64,737758,Singapore,1.43646,103.80435
EDUCATION (SECONDARY),SPRINGFIELD SECONDARY SCHOOL,SECONDARY,NA,30 TAMPINES AVENUE 8,529593,Singapore,1.34983,103.93008
EDUCATION (SECONDARY),ST. ANDREW'S SECONDARY SCHOOL,SECONDARY,NA,15 FRANCIS THOMAS DRIVE,359342,Singapore,1.33123,103.86619
EDUCATION (SECONDARY),ST. ANTHONY'S CANOSSIAN SECONDARY SCHOOL,SECONDARY,NA,1600 BEDOK NORTH AVENUE 4,469700,Singapore,1.33486,103.94138
EDUCATION (SECONDARY),ST. GABRIEL'S SECONDARY SCHOOL,SECONDARY,NA,24 SERANGOON AVENUE 1,556140,Singapore,1.34676,103.87576
EDUCATION (SECONDARY),ST. HILDA'S SECONDARY SCHOOL,SECONDARY,NA,2 TAMPINES STREET 82,528986,Singapore,1.35038,103.93675
EDUCATION (SECONDARY),ST. JOSEPH'S INSTITUTION,SECONDARY,NA,21 BISHAN STREET 14,579781,Singapore,1.32291,103.82859
EDUCATION (SECONDARY),ST. MARGARET'S SECONDARY SCHOOL,SECONDARY,NA,111 FARRER ROAD,259240,Singapore,1.32009,103.80947
EDUCATION (SECONDARY),ST. PATRICK'S SCHOOL,SECONDARY,NA,490 EAST COAST ROAD,429058,Singapore,1.30923,103.91664
EDUCATION (SECONDARY),SWISS COTTAGE SECONDARY SCHOOL,SECONDARY,NA,3 BUKIT BATOK STREET 34,659322,Singapore,1.36469,103.75064
EDUCATION (SECONDARY),TAMPINES SECONDARY SCHOOL,SECONDARY,NA,252 TAMPINES ST 12,529427,Singapore,1.37365,103.96196
EDUCATION (SECONDARY),TANGLIN SECONDARY SCHOOL,SECONDARY,NA,301 WEST COAST ROAD,127391,Singapore,1.30971,103.75815
EDUCATION (SECONDARY),TANJONG KATONG GIRLS' SCHOOL,SECONDARY,NA,20 DUNMAN LANE,439272,Singapore,1.30781,103.89664
EDUCATION (SECONDARY),TANJONG KATONG SECONDARY SCHOOL,SECONDARY,NA,130 HAIG ROAD,438796,Singapore,1.30832,103.89758
EDUCATION (SECONDARY),TECK WHYE SECONDARY SCHOOL,SECONDARY,NA,31 TECK WHYE CRESCENT,688848,Singapore,1.38317,103.75517
EDUCATION (SECONDARY),TEMASEK SECONDARY SCHOOL,SECONDARY,NA,600 UPPER EAST COAST ROAD,465561,Singapore,1.31621,103.94702
EDUCATION (SECONDARY),UNITY SECONDARY SCHOOL,SECONDARY,NA,20 CHOA CHU KANG STREET 62,689143,Singapore,1.3995,103.74593
EDUCATION (SECONDARY),VICTORIA SCHOOL,SECONDARY,NA,2 SIGLAP LINK,448880,Singapore,1.30838,103.92764
EDUCATION (SECONDARY),WEST SPRING SECONDARY SCHOOL,SECONDARY,NA,61 SENJA ROAD,677737,Singapore,1.38794,103.75998
EDUCATION (SECONDARY),WESTWOOD SECONDARY SCHOOL,SECONDARY,NA,11 JURONG WEST STREET 25,648350,Singapore,1.35378,103.7018
EDUCATION (SECONDARY),WHITLEY SECONDARY SCHOOL,SECONDARY,NA,30 BISHAN STREET 24,579747,Singapore,1.35554,103.84299
EDUCATION (SECONDARY),WOODGROVE SECONDARY SCHOOL,SECONDARY,NA,3 WOODLANDS AVENUE 6,738990,Singapore,1.42901,103.79744
EDUCATION (SECONDARY),WOODLANDS RING SECONDARY SCHOOL,SECONDARY,NA,10 WOODLANDS RING ROAD,738239,Singapore,1.43615,103.80067
EDUCATION (SECONDARY),WOODLANDS SECONDARY SCHOOL,SECONDARY,NA,11 MARSILING ROAD,739111,Singapore,1.43998,103.77436
EDUCATION (SECONDARY),XINMIN SECONDARY SCHOOL,SECONDARY,NA,11 HOUGANG AVENUE 8,538789,Singapore,1.37208,103.88287
EDUCATION (SECONDARY),YIO CHU KANG SECONDARY SCHOOL,SECONDARY,NA,3063 ANG MO KIO AVENUE 5,569868,Singapore,1.37813,103.84177
EDUCATION (SECONDARY),YISHUN SECONDARY SCHOOL,SECONDARY,NA,4 YISHUN STREET 71,768516,Singapore,1.42813,103.82883
EDUCATION (SECONDARY),YISHUN TOWN SECONDARY SCHOOL,SECONDARY,NA,6 YISHUN STREET 21,768610,Singapore,1.43274,103.8381
EDUCATION (SECONDARY),YUAN CHING SECONDARY SCHOOL,SECONDARY,NA,103 YUAN CHING ROAD,618654,Singapore,1.34204,103.72041
EDUCATION (SECONDARY),YUHUA SECONDARY SCHOOL,SECONDARY,NA,35 JURONG WEST STREET 41,649406,Singapore,1.34726,103.7224
EDUCATION (SECONDARY),YUSOF ISHAK SECONDARY SCHOOL,SECONDARY,NA,11 BUKIT BATOK STREET 25,658712,Singapore,1.34242,103.76031
EDUCATION (SECONDARY),YUYING SECONDARY SCHOOL,SECONDARY,NA,47 HOUGANG AVENUE 1,538884,Singapore,1.35675,103.89009
EDUCATION (SECONDARY),ZHENGHUA SECONDARY SCHOOL,SECONDARY,NA,91 SENJA ROAD,677741,Singapore,1.38875,103.76516
EDUCATION (SECONDARY),ZHONGHUA SECONDARY SCHOOL,SECONDARY,NA,13 SERANGOON AVENUE 3,556123,Singapore,1.3494,103.86925
